都道府県,名称,種別,所在地,緯度,経度,解説文,image_url,image_copyright,image_file_name
北海道,函館市元町末広町,港町,北海道函館市,41.76509982000000,140.71371982000000,"安政６年（1859）、長崎、横浜と共に我が国初の対外貿易港として開かれた港町です。明治期の大火後、市区改正事業が行われ、このときに現在の伝建地区の原型が造られました。明治、大正、昭和初期の和風、洋風、和洋折衷の町家や宗教建築、公共建築が建ち並び異国情緒豊かな町並みを形成しています。",https://bunka.nii.ac.jp/heritage/43967/_113228/43967_113228520088120326424_300.jpg,文化庁（文部科学省）,Hokkaido-1.jpg
京都府,伊根町伊根浦,漁村集落,京都府与謝郡伊根町,35.67228067000000,135.28499088000000,"伊根町は、京都府北部の丹後半島北東部に位置する。保存地区は、町の南部に位置し三方を山に囲まれた入江をなし、南に開く湾口には青島が浮かび、干満の差が少ない穏やかな伊根湾沿いに江戸時代末期から昭和初期に連続して建てられた舟屋及び主屋、蔵など伝統的建造物を残す漁村である。青島と伊根湾及びこれらを囲む魚付林等の周辺環境と一体となって歴史的風致を形成している地区である。",https://bunka.nii.ac.jp/heritage/43967/_113295/43967_113295387531459867503_300.jpg,文化庁（文部科学省）,Kyoto-1.jpg
京都府,京都市上賀茂,社家町,京都府京都市,35.05762142000000,135.75483962000000,"上賀茂神社に使えた旧社家の一部で、明神川沿いに並ぶ石橋、土塀、門、平屋建、桟瓦葺で虹梁、舟肘木の簡素な装飾の主屋、前庭等社家町としての独特な歴史的風致を形成している。",https://bunka.nii.ac.jp/heritage/43967/_113243/43967_113243087425822332322_300.jpg,京都市,Kyoto-2.jpg
京都府,京都市祇園新橋,茶屋町,京都府京都市,35.00566246000000,135.77396027000000,"八坂神社周辺の茶屋町として江戸時代中頃から賑わった地域で、祇園六町のうち新橋通りを中心とした茶屋町である。茶屋の建物は切妻造桟瓦葺、平入二階建てで元治２年（1865）大火直後の建築。一階は千本格子、二階は縁を出し「すだれ」を掛ける。隣り合う庇は同高で統一感がある。",https://bunka.nii.ac.jp/heritage/43967/_113245/43967_113245413840875880597_300.jpg,京都市教育委員会,Kyoto-3.jpg
京都府,京都市嵯峨鳥居本,門前町,京都府京都市,35.02727070000000,135.66522361000000,"京都市内から清滝を経て愛宕神社へ通じる愛宕街道に沿う町並みで、門前町の性格で、南側を丘陵に囲まれる。中程の化野念仏寺を中心に市内側は町家風の建物、上の方は農家風の茅葺の建物が多くなる。市街地とは異なり主屋の間口は全般的に広いのが特徴である。",https://bunka.nii.ac.jp/heritage/43967/_113246/43967_113246658160360072667_300.jpg,京都市教育委員会,Kyoto-4.jpg
京都府,京都市産寧坂,門前町,京都府京都市,34.99918308000000,135.78009712000000,"八坂神社、法観寺、清水寺などの門前町として古くから賑わった地域で、産寧坂から二年坂辺りは一階を店とする虫籠窓の町家、茶店がならび、二年坂から高台寺辺りは大正時代以降の二階建数奇屋風の町家が見られるなど特色ある町家、塔頭が周辺の緑と歴史的風致を形成している。",https://bunka.nii.ac.jp/heritage/43967/_113244/43967_113244178751499190231_300.jpg,文化庁（文部科学省）,Kyoto-5.jpg
京都府,南丹市美山町北,山村集落,京都府南丹市,35.31553973000000,135.62639423000000,"美山町北は京都府のほぼ中央部を流れる由良川の上流部，その河岸段丘地にある。屋敷地南側を固める石垣や主屋等の茅葺屋根等が特徴ある集落景観を織り成している。北山型の茅葺民家およそ50戸が東西600ｍ、南北300ｍの範囲に点在、約60％が茅葺屋根である。",https://bunka.nii.ac.jp/heritage/43967/_113247/43967_113247180253036198680_300.jpg,南丹市教育委員会,Kyoto-6.jpg
京都府,与謝野町加悦,製織町,京都府与謝郡与謝野町,35.50428667000000,135.09211299000000,"保存地区は東西240ｍ、南北630ｍ、面積12.0haの範囲にあり、街道がクランク状に折れ曲がる城下町特有の地割をよく残している。近世から昭和初期に建てられた主屋や土蔵、縮緬工場などが一体となって丹後縮緬の製織町として特色ある歴史的風致を今日によく伝えている。",https://bunka.nii.ac.jp/heritage/43967/_113298/43967_113298088437590939416_300.jpg,文化庁（文部科学省）,Kyoto-7.jpg
青森県,黒石市中町,商家町,青森県黒石市,40.64516052000000,140.59669341000000,"保存地区は、明暦２年(1656)に津軽信英(のぶふさ)が黒石津軽家を創立して以来、浜街道沿いの商家町として栄え、交通の要所でもありました。主屋の前面に庇を張り出し日常の往来に供される「こみせ」と呼ばれる通路は、信英が町割をした時に作らせたものと言われており、人々の努力により連綿と保存されてきました。",https://bunka.nii.ac.jp/heritage/43967/_113294/43967_113294841898986320400_300.jpg,文化庁（文部科学省）,Aomori-1.jpg
青森県,弘前市仲町,武家町,青森県弘前市,40.61312326000000,140.46779682000000,"伝建地区は、津軽藩10万石の城下町の旧武家町の一部にあたります。当時の地割がよく踏襲されており，主屋，表門，サワラの生垣，板塀などが往時の面影を残しています。",https://bunka.nii.ac.jp/heritage/43967/_113229/43967_113229933390841132695_300.jpg,弘前市教育委員会,Aomori-2.jpg
大阪府,富田林市富田林,寺内町,大阪府富田林市,34.50029393000000,135.60294976000000,"石川西側の河岸段丘上に室町時代末に開かれた興正寺別院を中心とする寺内町。現在もほぼ寺内町の町割りをとどめ，街路に沿って江戸時代以降のつし二階，本瓦葺，平入の大規模な町家が軒を連ね，全体として重厚な歴史的景観を伝えている。",https://bunka.nii.ac.jp/heritage/43967/_113276/43967_113276356109703642396_300.jpg,富田林市教育委員会,Osaka-1.jpg
岩手県,金ケ崎町城内諏訪小路,武家町,岩手県胆沢郡金ケ崎町,39.19731728000000,141.12254830000000,"伊達藩領では、北上川以西の最北端に位置しています。保存地区は北上川に面する台地上に広がり、伊達藩の家臣大町氏の屋敷であった要害を中心に構成された武家町である。敷地境には、イグネと呼ばれる屋敷林と生垣が連なり、茅葺の武家屋敷が景観を特徴づけています。",https://bunka.nii.ac.jp/heritage/43967/_113285/43967_113285352411740360368_300.jpg,金ケ崎町教育委員会,Iwate-1.jpg
兵庫県,神戸市北野町山本通,港町,兵庫県神戸市,34.70027130000000,135.19002294000000,"慶応3年の兵庫開港以来、神戸には居留地が設けられたが、明治20年代になると六甲山麓の南斜面地に洋風、和風の住宅が建設され、異国情緒豊かな住宅地が形成された。保存地区はその一画にあり、今日なお歴史的風致を留めている。",https://bunka.nii.ac.jp/heritage/43967/_113248/43967_113248592175412348771_300.jpg,兵庫県教育委員会,Hyogo-1.jpg
兵庫県,たつの市龍野,商家町,兵庫県たつの市,34.85794830000000,134.54551125000000,"たつの市龍野は、兵庫県西南部の西播磨地方に位置する、中世を起源とする龍野城下に形成された商家町。うすくちしょうゆ発祥の地としても著名で、17世紀後半に始まったしょうゆ醸造により近代にかけて発展し、現在も地区内で生産が続く。江戸時代の町割も良好に残り、近世に成立した５町を中心に、近世から昭和戦前期までに建てられた伝統的な建造物がよく残る伝統的建造物群保存地区。",https://bunka.nii.ac.jp/heritage/43967/_365689/43967_365689267362474980135_300.jpg,文化庁（文部科学省）,Hyogo-2.jpg
兵庫県,丹波篠山市篠山,城下町,兵庫県丹波篠山市,35.07235281000000,135.22184341000000,"江戸時代初期に徳川家康の命により築城された篠山城跡（国指定史跡）とその周辺に計画された城下町を含む。城跡および武家町や商家町をよく残し、近世初頭の城下町として特色ある歴史的風致をよく残す。",https://bunka.nii.ac.jp/heritage/43967/_113292/43967_113292667956429871437_300.jpg,文化庁（文部科学省）,Hyogo-3.jpg
兵庫県,丹波篠山市福住,宿場町,兵庫県丹波篠山市,35.07133503000000,135.35736327000000,"丹波篠山市福住伝統的建造物群保存地区は宿場町として発展した町並みと、街道沿いに形成された特徴ある農村に、妻入を主体としたつし二階建瓦葺や平屋建茅葺の伝統的建造物が、周囲の田園及び特徴ある灌漑施設等の環境と一体となって、宿場町とそれに隣接する農村集落の歴史的風致を良く伝え、我が国にとって価値が高い。",https://bunka.nii.ac.jp/heritage/43967/_173822/43967_173822743859219714216_300.jpg,文化庁（文部科学省）,Hyogo-4.jpg
兵庫県,豊岡市出石,城下町,兵庫県豊岡市,35.46190281000000,134.87498500000000,"豊岡市は兵庫県の北東部に位置しています。市域の南東部にある出石は、出石川と東の山塊から流れ出る谷山川との合流部付近に位置し、有子山を背にして北に広がっています。現在の出石は、慶長９年（1604）頃、小出吉英が出石城を築城するとともに城下町を整備したことにはじまると考えられています。 保存地区は、出石城跡をはじめとして、近世後期における城下町の町割や敷地の間口割をよく残すとともに、近世から近代に建てられた町家や寺社建築、武家屋敷など、但馬地方における城下町の歴史的風致を今日に良く伝えています。",https://bunka.nii.ac.jp/heritage/43967/_113307/43967_113307127336380800820_300.jpg,豊岡市教育委員会,Hyogo-5.jpg
兵庫県,養父市大屋町大杉,山村集落,兵庫県養父市,35.40455818000000,134.76752663000000,"養父市大屋町大杉は、市域を東流する大屋川の中流域左岸に所在し、１６世紀半ばには集落が形成されていたとみられ、江戸時代に副業として営まれていた養蚕が、明治末期から昭和初期にかけて主産業となり、専業化が進んだ。近代における養蚕業の発展、専業化とともに、大正期頃には、保温性と通気性を備え、当地での養蚕に適した三階建、大壁造の特徴的な主屋の形式が成立した。伝統的な主屋と共に、土蔵等の附属屋、社寺建築、石垣、水路、水場（アライト）などが一体となって、但馬地域における山村集落の歴史的風致を良く伝える伝統的建造物群保存地区。",https://bunka.nii.ac.jp/heritage/43967/_211126/43967_211126026601160377742_300.jpg,文化庁（文部科学省）,Hyogo-6.jpg
宮城県,村田町村田,商家町,宮城県柴田郡村田町,38.11855970000000,140.72521738000000,"村田町村田は仙台市の南方に位置する商家町で、江戸時代は紅花の集散地として、明治以降は繭の集散地および仙南の中心的な商業地として栄える。通りに面して、店舗専用建築と門が交互に並ぶ特徴的な町並を形成し、店はなまこ壁を多用した重厚な土蔵(どぞう)造とし、門には彫刻や欄間を飾り、いずれも近代以降に意匠的に発展した形式とする。江戸時代に整備された町割りの上に、意匠的に優秀な伝統的建造物を良く残し、近世から近代にかけて栄えた商家町の歴史的風致を良く伝える。",https://bunka.nii.ac.jp/heritage/43967/_196347/43967_196347789387830002019_300.jpg,文化庁（文部科学省）,Miyagi-1.jpg
奈良県,宇陀市松山,商家町,奈良県宇陀市,34.47945430000000,135.93302302000000,"宇陀市松山は、近世初頭に城下町が建設されて以降、宇陀地方の政治・経済の中心地として発展した。城山と宇陀川の間に南北に長く展開する平入りの町家群は江戸後期から昭和初期にかけて建てられたもので、地区内に流れるせせらぎや、遠近にみえる山々と調和して独特な景観を形成している。",https://bunka.nii.ac.jp/heritage/43967/_113303/43967_113303035806441741534_300.jpg,宇陀市教育委員会,Nara-1.jpg
奈良県,橿原市今井町,寺内町,奈良県橿原市,34.50699168000000,135.78639145000000,"橿原市今井町は奈良県北部に位置し、室町時代の敷地割を伝える寺内町として全国的に著名。かつて、環濠に囲まれた約17ヘクタールの保存地区に建つ家屋の過半数が伝統的建造物であり、長く連なる軒先が統一観をかもし出している。",https://bunka.nii.ac.jp/heritage/43967/_113249/43967_113249274726324667986_300.jpg,橿原市教育委員会,Nara-2.jpg
奈良県,五條市五條新町,商家町,奈良県五條市,34.34853844000000,135.69172653000000,"五條市五條新町伝統的建造物群保存地区は、近世前期までに成立した町割を良く残し、江戸時代の重厚な町家が多く建ち並ぶ密度の高い町並みを形成し、南大和地域に栄えた商家町としての歴史的風致を今日に良く伝え、我が国にとって価値が高い。",https://bunka.nii.ac.jp/heritage/43967/_134390/43967_134390100398534870121_300.jpg,文化庁（文部科学省）,Nara-3.jpg
秋田県,仙北市角館,武家町,秋田県仙北市,39.59963085000000,140.56176887000000,"佐竹藩支藩の城下町に形成された武家屋敷地です。藩政時代の地割が踏襲され、広大な屋敷地に武家住宅、表門、附属建物、板塀等が残っています。国の天然記念物に指定されているシダレザクラやモミ等の樹木が屋敷林を形成し、武家町を特徴づけています。",https://bunka.nii.ac.jp/heritage/43967/_113230/43967_113230969021744299828_300.jpg,仙北市教育委員会,Akita-1.jpg
秋田県,横手市増田,在郷町,秋田県横手市,39.20384028000000,140.54549567000000,"横手市南方に位置する、近世から近代にかけて栄えた在郷町。江戸時代に発展した町割を良く残し、通りに沿って、重厚な切妻造妻入形式の主屋が建ち並ぶ。主屋とその背面に接続する鞘付土蔵によって、雪国に対応した特徴的な内部空間を形成し、地方的特色を良く示す。東北地方では数少ない、商家の町並みを良く残す伝統的建造物群保存地区。",https://bunka.nii.ac.jp/heritage/43967/_195805/43967_195805251623621282779_300.jpg,文化庁（文部科学省）,Akita-2.jpg
和歌山県,湯浅町湯浅,醸造町,和歌山県有田郡湯浅町,34.03664267000000,135.17484221000000,"湯浅の醤油醸造は、中世に始まり紀州藩の保護を受けて全国に販路を広げ，代表的な産物となった。湯浅町湯浅地区は醤油醸造など商工業を中心に発展した町であり，近世期の地割を残すとともに，近世から近代にかけての瓦葺町家と土蔵等で構成される重厚な歴史的風致をよく伝えている。",https://bunka.nii.ac.jp/heritage/43967/_113306/43967_113306744901745997881_300.jpg,文化庁（文部科学省）,Wakayama-1.jpg
鳥取県,倉吉市打吹玉川,商家町,鳥取県倉吉市,35.43203161000000,133.82541108000000,"鳥取県の中央に位置する倉吉市は、江戸時代から明治・大正時代にかけて商工業都市として繁栄した。伝建保存地区は豊な意匠を持町屋が建ち並ぶ本町通りと、白壁の土蔵群と石橋からなる玉川沿いからなる。赤褐色の屋根、軒周りの腕木や持送りの板、格子や出格子等に地域的特色があらわれている。",https://bunka.nii.ac.jp/heritage/43967/_113277/43967_113277810056432782177_300.jpg,倉吉市教育委員会,Tottori-1.jpg
鳥取県,大山町所子,農村集落,鳥取県西伯郡大山町,35.48287634000000,133.46689109000000,"所子の集落は、大山から日本海に注ぐ阿弥陀川河口から約1.7キロメートル上流の西にあり、川の水利を利用した田畑を生産基盤として発展した農村集落である。重要文化財門脇家住宅を始めとして近世から昭和初期にかけて建築された大規模な主屋や附属屋等からなる農家が群として残り、集落内を縦横に巡る水路、田畑等と一体となった農村景観を形成している。伯耆地方の伝統的な屋敷構えをもつ、大山の豊かな水を活かした農村集落。",https://bunka.nii.ac.jp/heritage/43967/_195806/43967_195806982526807449732_300.jpg,文化庁（文部科学省）,Tottori-2.jpg
鳥取県,若桜町若桜,商家町,鳥取県八頭郡若桜町,35.33972549000000,134.40142059000000,"若桜町若桜は鳥取県南東部の山岳地帯に位置し、若桜鬼ヶ城の城下町を起源とし、旧若桜街道沿いの宿場として、また近隣からの物資の集積地として栄えた商家町である。明治18年の大火後に建てられた伝統的な町家や敷地背面の土蔵、自然地形を生かした用水等、大火を経て復興した山あいの商家町の歴史的な風致を形成する伝統的建造物群保存地区。",https://bunka.nii.ac.jp/heritage/43967/_506264/43967_506264560375229790117_300.jpg,文化庁（文部科学省）,Tottori-3.jpg
福島県,喜多方市小田付,在郷町,福島県喜多方市,37.65113068000000,139.87444115000000,"喜多方市小田付は、蔵の町として知られる喜多方市の中心市街地を成す。天正１０年（１５８２）に町割が行われて近村から市が移され、近世には酒や味噌・醤油の醸造等も盛んになって、会津北方の交易の中心として発展してきた。近世の地割の上に店蔵など多様な土蔵が並ぶ町並みが、在郷町・醸造町としての特徴的な歴史的風致を良く伝える伝統的建造物群保存地区。",https://bunka.nii.ac.jp/heritage/43967/_365688/43967_365688014807134330660_300.jpg,文化庁（文部科学省）,Fukushima-1.jpg
福島県,下郷町大内宿,宿場町,福島県南会津郡下郷町,37.33327135000000,139.86047138000000,"大内宿は、会津若松と下野今市を結ぶ南山街道（下野街道とも呼ばれる）の宿場町です。全長約450mの往還に沿って、道の両側に妻を向けた寄棟造、茅葺の民家群がほぼ等間隔に建ち並んでいます。",https://bunka.nii.ac.jp/heritage/43967/_113231/43967_113231108719625293811_300.jpg,下郷町教育委員会,Fukushima-2.jpg
福島県,南会津町前沢,山村集落,福島県南会津郡南会津町,37.10226890000000,139.52058533000000,"南会津町前沢伝統的建造物群保存地区には、明治末期から昭和前期に建てられた中門造と直屋の茅葺民家が混在して建ち、これらの建築群が周辺の耕地、山林、河川等と共に、会津地方南部の雪深い山間部に独特な農村集落の歴史的風致を形成し、我が国にとって価値が高い。",https://bunka.nii.ac.jp/heritage/43967/_149271/43967_149271223822432111159_300.jpg,文化庁（文部科学省）,Fukushima-3.jpg
島根県,大田市大森銀山,鉱山町,島根県大田市,35.11382717000000,132.44345335000000,"島根県の中央にある大田市の山間部に位置し、地区は谷あいを流れる銀山川に沿って細長く形勢されている。石見銀山を背景とした町並みである。武家屋敷と町家が混在し、また江戸時代以降時代ごとに建築年代にばらつきがある特徴を持つ。",https://bunka.nii.ac.jp/heritage/43967/_113250/43967_113250615452107899927_300.jpg,大田市教育委員会,Shimane-1.jpg
島根県,大田市温泉津,港町,島根県大田市,35.09601045000000,132.34730392000000,"温泉津地区は、中世から続く温泉のある港町で石見銀山の外港として発展した。急峻で狭い谷筋を切り拓いた町並みは近世の町割りをよく残し、江戸末期から昭和初期にかけて建てられた町屋を中心に温泉旅館、寺社建築など多様な建造物が周囲の環境と一体となって歴史的景観を形成している。",https://bunka.nii.ac.jp/heritage/43967/_113291/43967_113291987634796206514_300.jpg,文化庁（文部科学省）,Shimane-2.jpg
島根県,津和野町津和野,武家町,島根県鹿足郡津和野町,34.46888177000000,131.77435738000000,"津和野町津和野伝統的建造物群保存地区は、江戸前期までに整備された津和野城下町のうち、上級家臣の居住地であった武家町及び旧山陰道を中心とした商家町からなり、近世からの地割はよく旧態を保持している。武家屋敷の一部や、江戸末期から昭和初期にかけて建築された町家等の伝統的建造物群が、各通り沿いに流れる水路等と一体となって特色ある歴史的風致を形成しており、我が国にとって価値が高い。",https://bunka.nii.ac.jp/heritage/43967/_194826/43967_194826875480664981026_300.jpg,文化庁（文部科学省）,Shimane-3.jpg
茨城県,桜川市真壁,在郷町,茨城県桜川市,36.27745630000000,140.09919540000000,"桜川市真壁町は、戦国期の真壁城（国指定史跡）に付属した集落に起源を持つ。江戸時代に入ると、笠間(かさま)藩の陣屋が置かれて在郷町として発展した。 保存地区内には江戸時代以来の町割がよく残り、天保の大火後の重厚な蔵造(くらづくり)の町家を中心に、近代の町家や洋風建築も残る。間口の広い敷地では主屋脇に薬医門(やくいもん)や袖蔵(そでくら)を建てて塀を巡らすなど、北関東らしい多様な町並み景観に特徴がある。",https://bunka.nii.ac.jp/heritage/43967/_132777/43967_132777019326828973339_300.jpg,文化庁（文部科学省）,Ibaraki-1.jpg
岡山県,倉敷市倉敷川畔,商家町,岡山県倉敷市,34.59623468000000,133.77234650000000,"天正12年（1584）宇喜多秀家により新田の開発が行われ、のち備中松山藩の港として上方への物資の輸送中継地となった。寛永19年（1642）、天領となる。元禄から文政の約130年間に人口は2倍となり、本瓦葺塗屋造の町並みが形成された。",https://bunka.nii.ac.jp/heritage/43967/_113251/43967_113251805277615184523_300.jpg,倉敷市教育委員会,Okayama-1.jpg
岡山県,高梁市吹屋,鉱山町,岡山県高梁市,34.86094843000000,133.47225245000000,"銅山の歴史は平安時代に遡るが、全盛期は室町時代から、明治末期に及び中国地方随一を誇った。江戸時代後期から銅の産出は減少し、代わって弁柄製造が盛んになり、大正末まで繁栄した。赤い石州瓦、弁柄色の土壁、格子、塗籠の重厚な町並みである。",https://bunka.nii.ac.jp/heritage/43967/_113252/43967_113252287087137125606_300.jpg,文化庁（文部科学省）,Okayama-2.jpg
岡山県,津山市城西,寺町,岡山県津山市,35.06933212000000,134.00435448000000,"津山市城西は、津山城下町の西部に成立、発展した寺町及び商家町で、城下町を東西に貫く出雲往来を軸に江戸時代以来の地割の姿を良く保持する。寺町は、藩主の菩提寺をはじめ、江戸時代の様相を伝える境内に、17世紀以降各時代、各宗派の寺院建築が良く残る。また、商家町は、往来沿いに近代の発展を示す伝統的な町家が連続して残る。江戸時代から近代にかけて旧城下町に発展した寺町、商家町の歴史的風致を良く伝える伝統的建造物群保存地区。",https://bunka.nii.ac.jp/heritage/43967/_504427/43967_504427245223652847716_300.jpg,文化庁（文部科学省）,Okayama-3.jpg
岡山県,津山市城東,商家町,岡山県津山市,35.06236735000000,134.01392109000000,"津山市城東伝統的建造物群保存地区は、城下町の商家町として発展した町並みで、江戸時代に形成された町割を良く残し、江戸時代の町家を主体として昭和戦前期までに建築された、出格子窓、むしこ窓、なまこ壁、袖壁などを使用し、意匠的に優れた伝統的建造物が密度高く建ち並び、城下町に形成された商家町の歴史的風致を良く伝え、我が国にとって価値が高い。",https://bunka.nii.ac.jp/heritage/43967/_194827/43967_194827666282749608764_300.jpg,文化庁（文部科学省）,Okayama-4.jpg
岡山県,矢掛町矢掛宿,宿場町,岡山県小田郡矢掛町,34.62762070000000,133.58710480000000,"矢掛町矢掛宿は山陽道の宿場町として栄え、街道沿いには江戸時代後期までに形成された地割に、妻入と平入の町家が混在した変化ある屋並みが見られる。江戸時代の旧本陣と旧脇本陣が重要文化財に指定され揃って残るのは全国唯一で、漆喰塗込の重厚な町家等、江戸時代から近代に建てられた伝統的建造物が良く残り、山陽道の宿場町の歴史的風致を良く伝える伝統的建造物群保存地区。",https://bunka.nii.ac.jp/heritage/43967/_504428/43967_504428197737163164819_300.jpg,文化庁（文部科学省）,Okayama-5.jpg
栃木県,栃木市嘉右衛門町,在郷町,栃木県栃木市,36.38739474000000,139.73318935000000,"栃木市嘉右衛門町伝統的建造物群保存地区は、日光例幣使街道に沿って形成された敷地割りを良く残し、江戸時代末期から近代にかけて建築された、主屋や土蔵など伝統的建造物が残り、街道沿いに発展した在郷町の特色ある歴史的風致を伝え、我が国にとって価値が高い。",https://bunka.nii.ac.jp/heritage/43967/_170319/43967_170319760021325001840_300.jpg,文化庁（文部科学省）,Tochigi-1.jpg
広島県,呉市豊町御手洗,港町,広島県呉市,34.17847155000000,132.86638377000000,"豊町御手洗は，江戸時代の西廻り航路の発達とともに瀬戸内の潮待ち・風待ちの港町として発展。切妻造・桟瓦葺の町家が建ち並ぶ町並みには，調和のとれた洋風建築も点在する。突堤・雁木・高燈籠などの歴史的な港湾施設も，港町の風情をよく伝える。",https://bunka.nii.ac.jp/heritage/43967/_113254/43967_113254355948495562114_300.jpg,呉市教育委員会,Hiroshima-1.jpg
広島県,竹原市竹原地区,製塩町,広島県竹原市,34.34710966000000,132.91056286000000,"竹原の町並みは中世に遡るが、近世初頭に市場、港町として形成された。慶安8年（1650）に塩田が開発され町は栄えた。江戸時代の後期には経済発展を背景にして学問、茶の湯が盛んになり京風の文化が隆昌した。旧竹原の町並みには江戸時代から昭和初期にかけて建築された本瓦葺・漆喰塗籠の重厚な町並みが現存する。",https://bunka.nii.ac.jp/heritage/43967/_113253/43967_113253081045147753706_300.jpg,文化庁（文部科学省）,Hiroshima-2.jpg
広島県,廿日市市宮島町,門前町,広島県廿日市市,34.34860039000000,132.33149910000000,"廿日市市宮島町は広島湾の厳島（安芸の宮島）に建つ厳島神社の門前町である。海沿いの狭い土地に形成された町並みには、戦国時代に由来しつつ、江戸後期までに形成された特徴ある地割が良く残る。江戸時代から昭和20年代に至る伝統的な町家や和風住宅が、山麓に建つ寺社建築や社家住宅と一体となって、厳島神社の周囲に栄える門前町の歴史的風致を良く伝える伝統的建造物群保存地区。",https://bunka.nii.ac.jp/heritage/43967/_506265/43967_506265238151956946328_300.jpg,文化庁（文部科学省）,Hiroshima-3.jpg
広島県,福山市鞆町,港町,広島県福山市,34.48585320000000,133.36235237000000,"福山市鞆町は沼隈半島東南端に位置する港町で、周囲の島々と共に鞆の浦と呼ばれる景勝を成し、鞆の浦の地名は『万葉集』の大伴旅人の歌に初見される。古代より潮待ちの港とされ、瀬戸内の海上交通の要衝として栄え、近世には醸造業や船金具・農具・漁網等の製造業も盛んとなり、明治中期以降に海運が衰退しても、これらの産業が町を支えた。江戸中期から昭和戦前までの伝統的な主屋が、中世を基盤として江戸中期までに整えられた地割と共に良く残り、石垣や石階段等の工作物、浜蔵や常夜燈、雁木、舟繋石等の港湾施設と一体となって、港町としての歴史的風致を良く留める伝統的建造物群保存地区。",https://bunka.nii.ac.jp/heritage/43967/_211127/43967_211127921602184610655_300.jpg,文化庁（文部科学省）,Hiroshima-4.jpg
群馬県,桐生市桐生新町,製織町,群馬県桐生市,36.41926518000000,139.34415032000000,"桐生市桐生新町伝統的建造物群保存地区は、近世初頭に形成された町並みを良く残し、特徴ある敷地利用形態をもち、主として近代以降の多種多様な伝統的建造物が色濃く残り、製織町として発展した歴史的風致を良く残し、我が国にとって価値が高い。",https://bunka.nii.ac.jp/heritage/43967/_170320/43967_170320684357280841320_300.jpg,文化庁（文部科学省）,Gunma-1.jpg
群馬県,中之条町六合赤岩,山村集落,群馬県吾妻郡中之条町,36.57583293000000,138.63094354000000,"保存地区は、白砂川の河岸段丘上に形成された集落であり、近代養蚕技術の移入によって発展した集落です。養蚕の作業場も兼ねる２階あるいは３階建の主屋や農耕地など、山村・養蚕集落として特徴的な町並みを今に伝えています。",https://bunka.nii.ac.jp/heritage/43967/_113301/43967_113301749267430516245_300.jpg,文化庁（文部科学省）,Gunma-2.jpg
山口県,萩市佐々並市,宿場町,山口県萩市,34.28893892000000,131.46388521000000,"萩市佐々並市伝統的建造物群保存地区は、江戸時代の宿駅施設等が失われているものの、近世前期に御茶屋を起点として成立した町割が良く残り、往還沿いに混在して残る茅葺や桟瓦葺の主屋が周囲の棚田等と一体となって、萩藩の主要街道であった萩往還の宿場町としての歴史的風致を今日に良く伝え、我が国にとって価値が高い。",https://bunka.nii.ac.jp/heritage/43967/_149273/43967_149273587256191657525_300.jpg,文化庁（文部科学省）,Yamaguchi-1.jpg
山口県,萩市浜崎,港町,山口県萩市,34.41977334000000,131.40053172000000,"浜崎は城下町が形成された阿武川下流デルタ北東端に城下町の形成にともなって開かれた港町である。近世は廻船業と水産業で栄え、大正から昭和初期にはイリコや夏蜜柑等の交易で栄えた。江戸時代以来の街路構成及び敷地割が残り、江戸時代から昭和初期に建てられた建物が多く残る。また、御座船が納めた御船倉は国史跡に指定されている。",https://bunka.nii.ac.jp/heritage/43967/_113287/43967_113287614828274409145_300.jpg,萩市教育委員会,Yamaguchi-2.jpg
山口県,萩市平安古地区,武家町,山口県萩市,34.40338455000000,131.38872741000000,"平安古地区は城下町萩の開墾が進むのに平行して数多くの武士が屋敷地を構えたところのひとつである。橋本川沿いにあり、江戸時代以来の地割をよく残し、主屋のほか長屋門、土蔵などの建築物から当時の屋敷構えをうかがうことができる。",https://bunka.nii.ac.jp/heritage/43967/_113256/43967_113256671515404556193_300.jpg,萩市教育委員会,Yamaguchi-3.jpg
山口県,萩市堀内地区,武家町,山口県萩市,34.41294646000000,131.38653855000000,"堀内地区は慶長13年に毛利輝元が指月山に築城した萩城三の丸にあたるほぼ全域で、藩の諸役所と毛利一門をはじめとする大身の侍屋敷が建ち並んでいる。近世城下町の侍屋敷としての地割をよく残し、土塀越しにみえる夏蜜柑とともに歴史的風致を形成している。",https://bunka.nii.ac.jp/heritage/43967/_113255/43967_113255786974554448252_300.jpg,文化庁（文部科学省）,Yamaguchi-4.jpg
山口県,柳井市古市金屋,商家町,山口県柳井市,33.96918519000000,132.10823592000000,"柳井は瀬戸内海の要衝の地で古くから栄えた。柳井川は物資輸送の役割を果たし、荷卸場中心として街路が作られた。東西に通じる本町通りと南側柳井町に連なる掛屋小路両側に連なる商屋の町並みで、本瓦葺漆喰塗籠の重厚な造りである。",https://bunka.nii.ac.jp/heritage/43967/_113257/43967_113257444286186678446_300.jpg,山口県教育委員会,Yamaguchi-5.jpg
埼玉県,川越市川越,商家町,埼玉県川越市,35.92302610000000,139.48290643000000,"保存地区は城下町川越の町人地を中核とする地区です。明治２６年の大火後、防火性能のある蔵造りの町家を建て、重厚な町並みが形成されました。さらに大正以降になると洋風建築や洋風町家が加わり、独特な町並みを作り上げています。",https://bunka.nii.ac.jp/heritage/43967/_113270/43967_113270835934968844160_300.jpg,川越市都市景観課,Saitama-1.jpg
徳島県,美馬市脇町南町,商家町,徳島県美馬市,34.06780610000000,134.14664365000000,"近世在郷町としての繁栄を示す18世紀初頭以降の各時期の民家遺構を多く保存し、かつ、本瓦葺・大壁造の重厚な構えと装飾的な卯建など特色ある意匠をもつ町家群からなる。本瓦葺，塗籠壁で二階建，ツシ二階建で，切妻造平入が主流をしめ、また，うだつを上げている。町家の中で最も古いものは宝永4年の棟札をもつ。",https://bunka.nii.ac.jp/heritage/43967/_113258/43967_113258175206111203475_300.jpg,美馬市教育委員会,Tokushima-1.jpg
徳島県,三好市東祖谷山村落合,山村集落,徳島県三好市,33.88351145000000,133.93475148000000,"落合地区は、険しい東祖谷山村間の祖谷川と落合谷との合流地点より山の急斜面上に沿って広がる集落である。斜面いっぱいに畑地が広がり、そのなかに民家が張り付いている。それを支えるのが伝統的な石垣である。民家は古いもので18世紀にさかのぼり、江戸時代のものも多く、この地方の集落形成をよく伝えている。これらの畑地、民家、石垣で構成される景観は、独特のものである。",https://bunka.nii.ac.jp/heritage/43967/_113299/43967_113299474993987279893_300.jpg,文化庁（文部科学省）,Tokushima-2.jpg
徳島県,牟岐町出羽島,漁村集落,徳島県牟岐町,33.63637060000000,134.42382935000000,"出羽島は、徳島県南部、牟岐町の南海上に浮かぶ島で、島北部では、東から西に砂嘴が伸びて入り江をつくり、この入り江周りから島北西部の低地にかけて形成された漁村で、徳島藩の移住政策により寛政12年から集落の形成が始まり、明治後期から昭和戦前期にかけて、主としてカツオ漁やマグロ漁で栄えた。天保11年を最古とし、江戸期から昭和初期にかけて建てられた伝統的な主屋が良く残り、その大半は道路に面して建つ間口3～4間規模の町家で、切妻造、平入、平屋若しくは二階建である。同規模、同形式の伝統的な主屋が、社寺や集落南部の斜面に階段状に形成された畑地、小路、石積・石垣、井戸・燈籠等の石造物等と一体となって、近世後期に徳島南海の島に形成された漁村の歴史的風致を良く伝える伝統的建造物群保存地区。",https://bunka.nii.ac.jp/heritage/43967/_209779/43967_209779310620517489039_300.jpg,文化庁（文部科学省）,Tokushima-3.jpg
千葉県,香取市佐原,商家町,千葉県香取市,35.88928194000000,140.49786552000000,"利根川下流域における物資の集散地として，江戸時代から大正時代まで栄えた河港商業都市です。保存地区は小野川沿いと香取街道沿いの十字型を成し，木造・蔵造り，切妻・寄棟，平入，妻入など多様な建築様式の町家や土蔵，洋館が並んでいます。小野川沿いには「だし」と呼ばれる荷揚場も残っています。",https://bunka.nii.ac.jp/heritage/43967/_113271/43967_113271382517715404905_300.jpg,文化庁（文部科学省）,Chiba-1.jpg
香川県,丸亀市塩飽本島町笠島,港町,香川県丸亀市,34.39366372000000,133.78784843000000,"塩飽水軍の本拠地で江戸時代中期から明治にかけた町屋形式の家が並んでいる。道は緩やかに傾斜し、丁字型、食い違い十字型に交わり、一部の道幅を変え、見通しできぬような組織的な構成がとられている港町である。",https://bunka.nii.ac.jp/heritage/43967/_113259/43967_113259213181555098524_300.jpg,文化庁（文部科学省）,Kagawa-1.jpg
愛媛県,内子町八日市護国,製蝋町,愛媛県喜多郡内子町,33.55678758000000,132.65379451000000,"金比羅街道、四国遍路道として開けた旧街道。江戸期～明治期にかけて製蝋業にて発展、漆喰塗大壁の家が750メートル軒を連ねる。本芳我家、上芳我家、大村家など、中心的建物は特に上質である。",https://bunka.nii.ac.jp/heritage/43967/_113260/43967_113260395910718958213_300.jpg,愛媛県教育委員会,Ehime-1.jpg
愛媛県,西予市宇和町卯之町,在郷町,愛媛県西予市,33.36347391000000,132.51377761000000,"卯之町は中世の伊予西園寺氏の松葉城下町に起源を持つとされる宇和島藩の在郷町で、江戸時代を通じて宇和盆地の農作物や宇和檜の集散地として、また、宇和島街道の宿駅や四国霊場第四三番札所・源光山明石寺の門前として賑わった。 保存地区は、近世の地割りを良く残し、地区全体に江戸時代から昭和戦前の町家が残ると共に、近代の教会や学校などの洋風建築も存在し、特徴ある歴史的風致を形成する。",https://bunka.nii.ac.jp/heritage/43967/_128613/43967_128613294384804196117_300.jpg,文化庁（文部科学省）,Ehime-2.jpg
高知県,安芸市土居廓中,武家町,高知県安芸市,33.51929844000000,133.91295948000000,"安芸市土居廓中伝統的建造物群保存地区は、武家屋敷が整然と並ぶ町割とともに、江戸時代末期から昭和戦前期にかけての主屋や附属屋が残り、狭い通りに沿って生垣や塀等が連なる武家地特有の歴史的風致を今日に良く伝え、我が国にとって価値が高い。",https://bunka.nii.ac.jp/heritage/43967/_170322/43967_170322411776324260493_300.jpg,文化庁（文部科学省）,Kochi-1.jpg
高知県,室戸市吉良川町,在郷町,高知県室戸市,33.33153439000000,134.09866341000000,"高知と室戸を結ぶ街道沿いに形成された在郷町。街道の両側に短冊形の敷地が並び、町並みは土佐漆喰仕上げとし、水切り瓦を多用した切妻造平入桟瓦葺きの町家や土蔵が連続して残り、いしぐろと呼ばれる石垣など、地域性豊かな歴史的風致を形成している。",https://bunka.nii.ac.jp/heritage/43967/_113278/43967_113278623694159643298_300.jpg,室戸市教育委員会,Kochi-2.jpg
新潟県,佐渡市宿根木,港町,新潟県佐渡市,37.80573254000000,138.24190070000000,"佐渡市宿根木は佐渡島南端の港町で江戸時代には船大工と船主の集落でした。密集した２階建の家屋には、外観は質素な縦下見板張りですが、室内は漆溜塗りなど豪華な仕上げが見られ、見応えがあります。",https://bunka.nii.ac.jp/heritage/43967/_113232/43967_113232218906824579091_300.jpg,佐渡市教育委員会,Niigata-1.jpg
福岡県,朝倉市秋月,城下町,福岡県朝倉市,33.46890462000000,130.69203342000000,"江戸時代初期、福岡藩の支藩として成立した秋月藩黒田氏の城下町で、甘木市街地北方約7キロメートルの小盆地に所在する。街路や屋敷地割がよく旧態を留め、武家屋敷や町家、社家等の伝統的建造物も残り、周囲の豊かな自然と相俟って特色ある歴史的景観を伝えている。",https://bunka.nii.ac.jp/heritage/43967/_113279/43967_113279772977493727363_300.jpg,朝倉市教育委員会,Fukuoka-1.jpg
福岡県,うきは市筑後吉井,在郷町,福岡県うきは市,33.34391500000000,130.75831266000000,"久留米と日田を結ぶ豊後街道の宿場町で、江戸時代後半は筑後地方の経済の中心的役割を担う在郷町に発展した。明治2年の大火後塗家造が普及し、豊後街道沿いの塗家造の町家群とその北側に広がる屋敷群、吉井の経済基盤を支えてきた河川や水路が一体となって歴史的風致を形成する。",https://bunka.nii.ac.jp/heritage/43967/_113280/43967_113280995075715637094_300.jpg,うきは市教育委員会,Fukuoka-2.jpg
福岡県,うきは市新川田篭,山村集落,福岡県うきは市,33.27801569000000,130.82817949000000,"うきは市新川田篭伝統的建造物群保存地区には、耳(み)納(のう)山系の山間部、隈上川沿いの谷筋に、井手を利用して稲作を営んでいる集落が分布する。近世以降の寄棟造(よせむねづくり)の茅葺の主屋や、明治時代以降に普及した入母屋造(いりもやづくり)の瓦葺の主屋が良好に残り、宅地や棚田をなす石垣、社殿、辻堂(つじどう)、石造物、樹木、河川等と一体となって特徴的な歴史的風致を形成しており、我が国にとって価値が高い。",https://bunka.nii.ac.jp/heritage/43967/_170323/43967_170323459158010932113_300.jpg,文化庁（文部科学省）,Fukuoka-3.jpg
福岡県,八女市黒木,在郷町,福岡県八女市,33.21174897000000,130.66905073000000,"黒木町は、福岡県筑後地方の南部、矢部川と笠原川の合流点の北西に形成された。天正15年（1587）に現在の下町が、慶長年間に中町、上町が町立てされたと推定され、中井手用水も整備された。正徳4年（1714）には黒木廻水路が整備され、現在の町並みや水路の基礎ができた。 保存地区は、高度な水利技術で知られる矢部川の中流域に近世前期に成立した在郷町を中心とし、矢部川右岸の黒木町、矢部川の水面及び左岸に広がる農地を含む。近世後期以降の居蔵造の重厚な町家が残るとともに、矢部川の堰や木橋、町中を流れる水路、矢部川対岸の棚田など水利にまつわる歴史的風致を良く残す。",https://bunka.nii.ac.jp/heritage/43967/_113312/43967_113312819411540099329_300.jpg,文化庁（文部科学省）,Fukuoka-4.jpg
福岡県,八女市八女福島,商家町,福岡県八女市,33.21031353000000,130.55681827000000,"近世初頭に柳河藩福島城城下町として形成された町で、廃城後は久留米藩に引き継がれ、周辺の農林産物の集散地として栄えた。居蔵（土蔵）造りの町並みが残されている。",https://bunka.nii.ac.jp/heritage/43967/_113288/43967_113288391347648110778_300.jpg,八女市,Fukuoka-5.jpg
富山県,高岡市金屋町,鋳物師町,富山県高岡市,36.75019430000000,137.00563567000000,"高岡市金屋町伝統的建造物群保存地区は、高岡城下の建設に伴い鋳物師が集住して形成された町並みが今日までよく継承され、意匠的に優れた外観や質の高い造作をもつ町家と作業場や土蔵など鋳物製造に関わる建物がともに良く残り、特色ある歴史的風致を良く伝え、我が国にとって価値が高い。",https://bunka.nii.ac.jp/heritage/43967/_173819/43967_173819360625297413476_300.jpg,文化庁（文部科学省）,Toyama-1.jpg
富山県,高岡市山町筋,商家町,富山県高岡市,36.74740002000000,137.01103885000000,"土蔵造や真壁造の町家、全面を洋風に仕上げた町家、レンガ造の洋風建築の銀行など、明治中期から、大正、昭和初期に建築された伝統的な建築物が残されています。",https://bunka.nii.ac.jp/heritage/43967/_113283/43967_113283823756867770176_300.jpg,高岡市教育委員会,Toyama-2.jpg
富山県,高岡市吉久,在郷町,富山県高岡市,36.75417519000000,137.02597046000000,"高岡市吉久は、江戸時代に小矢部川河口の吉久御蔵を中核として形成された在郷町で、明治時代に御蔵が失われて以降も米穀商を中心に栄えた。放生津往来沿いに、江戸時代後期までに形成された地割とともに、二階を物置とするために窓を設けず閉鎖的な表構えとするなど、江戸時代後期から近代に建てられた当地域独特の切妻造平入の町家が残り、高岡の小矢部川河口部に栄えた在郷町の歴史的風致を良く伝える伝統的建造物群保存地区。",https://bunka.nii.ac.jp/heritage/43967/_504426/43967_504426073528533329549_300.jpg,文化庁（文部科学省）,Toyama-3.jpg
富山県,南砺市相倉,山村集落,富山県南砺市,36.42596497000000,136.93441320000000,"南砺市相倉は富山県の西端白山山系の山岳地帯にあり、豪雪地である五箇山地方特有の合掌家屋が建ち並んだ山村集落です。合掌家屋20棟や板倉などの伝統的建造物群が周囲の環境とともに歴史的風致を形成しています。",https://bunka.nii.ac.jp/heritage/43967/_113233/43967_113233888228746360791_300.jpg,南砺市教育委員会,Toyama-4.jpg
富山県,南砺市菅沼,山村集落,富山県南砺市,36.40475256000000,136.88623361000000,"南砺市菅沼は富山県の西端白山山系の山岳地帯にあり、豪雪地である五箇山地方特有の合掌家屋が建ち並んだ山村集落です。合掌家屋９棟や板倉などの伝統的建造物群が周囲の環境とともに歴史的風致を形成しています。",https://bunka.nii.ac.jp/heritage/43967/_113234/43967_113234731233508720424_300.jpg,南砺市教育委員会,Toyama-5.jpg
佐賀県,有田町有田内山,製磁町,佐賀県西松浦郡有田町,33.18854379000000,129.89833893000000,"内山の町並みは文政の大火後、時代の変遷とともに町屋や洋館建築の混在した変化に富んだ町並みが形成され、しかも個々の町屋や洋館の質が高く、現在もその家で事業を行い、住み、憩うという生きた町並みである。",https://bunka.nii.ac.jp/heritage/43967/_113261/43967_113261615108769047591_300.jpg,有田町教育委員会,Saga-1.jpg
佐賀県,嬉野市塩田津,商家町,佐賀県嬉野市,33.13058138000000,130.05956567000000,"塩田津は、有明海の干満の差を利用した川港として、米や陶磁器、その原料である天草陶石などの積卸しを行い、経済の中心地として栄えた。寛政元年(1789)の大火後に普及した「居蔵家」と称する形式の町家が表通りを中心に残る。また、川側に高く築いた石垣には、川に降りる石段や洗い場が設けられ、川港である塩田津特有の景観をつくり出している。",https://bunka.nii.ac.jp/heritage/43967/_113300/43967_113300631600673785812_300.jpg,文化庁（文部科学省）,Saga-2.jpg
佐賀県,鹿島市浜庄津町浜金屋町,港町,佐賀県鹿島市,33.09093829000000,130.12023097000000,"浜庄津町浜金屋町地区は、河港を背景として成立した在郷町であり、近世の地割をよく残すとともに、近世末から近代にかけて建築された茅葺町家と桟瓦葺町家が混在する特色ある歴史的風致を今日によく伝えている。",https://bunka.nii.ac.jp/heritage/43967/_113304/43967_113304579972617095762_300.jpg,文化庁（文部科学省）,Saga-3.jpg
佐賀県,鹿島市浜中町八本木宿,醸造町,佐賀県鹿島市,33.09267040000000,130.11522384000000,"浜中町八本木宿地区は、浜川左岸に位置し、長崎街道のひとつ多良海道が町の中央を通る。江戸中期頃から酒造が次第に盛んになり、江戸後期には十数軒の酒屋があった。多良海道を中心に両側町をつくり、近世後期から昭和に至る様々な時代の多様な建築が残り、豊かな町並みを創り出している。",https://bunka.nii.ac.jp/heritage/43967/_113305/43967_113305096145689482259_300.jpg,文化庁（文部科学省）,Saga-4.jpg
石川県,加賀市加賀橋立,船主集落,石川県加賀市,36.34959874000000,136.30730608000000,"加賀橋立は、江戸後期から明治中期にかけて活躍した北前船の船主や船頭が多く居住した集落です。保存地区には往時の様子を伝える船主屋敷が起伏に富む地形に展開しています。敷石や石垣には淡緑青色の笏谷石(しゃくだにいし)が使われ、集落に柔らかな質感を与えています。",https://bunka.nii.ac.jp/heritage/43967/_113297/43967_113297255007158013596_300.jpg,加賀市建設部,Ishikawa-1.jpg
石川県,加賀市加賀東谷,山村集落,石川県加賀市,36.23374598000000,136.44507660000000,"加賀市加賀東谷伝統的建造物群保存地区は、近世から昭和前期にかけて炭焼きを主産業とした山間部の４集落からなり、加賀地方の農家の特徴を発展させた近代以降の伝統的建造物群が、石積み、石造物、樹木、旧道、水路、河川等の工作物や自然物と一体となって独特な歴史的風致を形成しており、我が国にとって価値が高い。",https://bunka.nii.ac.jp/heritage/43967/_162462/43967_162462145786224065179_300.jpg,文化庁（文部科学省）,Ishikawa-2.jpg
石川県,金沢市卯辰山麓,寺町,石川県金沢市,36.57446595000000,136.66857415000000,"金沢市卯辰山麓伝統的建造物群保存地区は、起伏ある山麓の地形にあって、北国街道から寺院へ向かって延びる参道を基本とした独特な寺町の町割に、江戸時代の切妻造平入や妻入の特徴ある寺院本堂が密度高く残り、寺院周辺の近世から近代にかけての町家とともに、卯辰山麓一帯に形成された寺町の歴史的風致を今日に良く伝え、我が国にとって価値が高い。",https://bunka.nii.ac.jp/heritage/43967/_162461/43967_162461349720482760051_300.jpg,文化庁（文部科学省）,Ishikawa-3.jpg
石川県,金沢市主計町,茶屋町,石川県金沢市,36.57235544000000,136.66330581000000,"主計町は加賀百万石の城下町金沢の北東、旧北国街道と浅野川が交わる浅野川大橋のたもとに位置する。町名は加賀藩の重臣の屋敷地があったことに因むとされるが、江戸後期から昭和前期まで茶屋町的な地域として発展した。 町家は切妻造平入の比較的建ちの高い二階建で、近代に三階を増築したものも多い。正面の庇や出格子、内部の数奇屋風の意匠などが往時の繁栄を伝えている。",https://bunka.nii.ac.jp/heritage/43967/_113308/43967_113308865623633163702_300.jpg,文化庁（文部科学省）,Ishikawa-4.jpg
石川県,金沢市寺町台,寺町,石川県金沢市,36.55340920000000,136.65049333000000,"金沢市寺町台伝統的建造物群保存地区は、近世に形成された寺町の地割がよく旧態を保持している。旧野田道、旧鶴来道という二本の街路に沿って寺院が集積し、寺町としての特徴を示すとともに、旧鶴来道沿いには、寺社門前地に形成された町家が連なり、寺町台一帯に形成された歴史的風致を今日に良く伝え、我が国にとって価値が高い。",https://bunka.nii.ac.jp/heritage/43967/_173820/43967_173820611515096884906_300.jpg,文化庁（文部科学省）,Ishikawa-5.jpg
石川県,金沢市東山ひがし,茶屋町,石川県金沢市,36.57261236000000,136.66708449000000,"文政３年（1820）、犀川西側の「にし」とともに「ひがし」の茶屋町として浅野川の東岸に整形な街区が形成された茶屋町です。街路に面して、一階に出格子を構え、二階の建ちを高くして二階に座敷を置く茶屋の形成を示す町家が連なっています。",https://bunka.nii.ac.jp/heritage/43967/_113286/43967_113286754269010870740_300.jpg,金沢市教育委員会,Ishikawa-6.jpg
石川県,白山市白峰,山村集落,石川県白山市,36.17369688000000,136.62629099000000,"白山市白峰伝統的建造物群保存地区は、山間部の狭隘な敷地に形成された特色ある集落構成をもち、豪雪という気候風土や養蚕という生業に即して発展成立した地方色豊かな伝統的建造物群がよく残り、厳しい自然環境にある山村集落の歴史的風致を良く残し、我が国にとって価値が高い。",https://bunka.nii.ac.jp/heritage/43967/_170321/43967_170321660228534295260_300.jpg,文化庁（文部科学省）,Ishikawa-7.jpg
石川県,輪島市黒島地区,船主集落,石川県輪島市,37.27929984000000,136.73543605000000,"黒島町は、能登半島北西部の門前地域に位置する。西は日本海に面し、砂浜から山裾に上る緩斜面に、街道に沿って南北に長く形成される。集落の成立は16世紀前半と伝え、江戸時代に入ると北前船の船主が現れ、日本海航路による海運業の発展を背景に集落は成長を遂げた。 保存地区は、北前船の船主や船員の居住地として発展した能登天領の集落であり、全盛期の頃の集落全域及びこれと関連する墓地等を含む。最も栄えた明治初期の地割を良好に残し、伝統的な主屋が敷地内の庭園や土蔵、社寺建築、石造物、樹木と共に歴史的風致を良く伝える。",https://bunka.nii.ac.jp/heritage/43967/_113311/43967_113311201862429727587_300.jpg,文化庁（文部科学省）,Ishikawa-8.jpg
長崎県,雲仙市神代小路,武家町,長崎県雲仙市,32.86904614000000,130.26753430000000,"江戸期の武家屋敷の景観を基盤に伝統的なまちなみを今日に伝えている地域であり、中核施設である鍋島邸を中心に江戸期からの武家屋敷と明治期以降の近代和風建築が、水路や、石垣、生垣などの要素とが相まって、美しい伝統的景観をかもし出している。",https://bunka.nii.ac.jp/heritage/43967/_113296/43967_113296379519031350320_300.jpg,文化庁（文部科学省）,Nagasaki-1.jpg
長崎県,長崎市東山手,港町,長崎県長崎市,32.73731363000000,129.87321719000000,"長崎市東山手は、幕末開港の外国人居留地時代のオランダ坂の石畳・煉瓦塀、明治から大正時代の洋風建築などが歴史的風致を形成している。",https://bunka.nii.ac.jp/heritage/43967/_113262/43967_113262126494433760222_300.jpg,長崎市教育委員会,Nagasaki-2.jpg
長崎県,長崎市南山手,港町,長崎県長崎市,32.73343517000000,129.86801300000000,"長崎市南山手は幕末開港の外国人居留地で、穏やかな斜面地に沿って、幕末から明治時代にかけての優れた洋風建築や石畳・煉瓦塀が多数現存する。",https://bunka.nii.ac.jp/heritage/43967/_113263/43967_113263379320078520732_300.jpg,長崎市教育委員会,Nagasaki-3.jpg
長崎県,平戸市大島村神浦,港町,長崎県平戸市,33.47706707000000,129.55711527000000,"神浦は中世には遣明船の寄港地として知られた玄界灘に浮かぶ的山(あづち)大島の南東にある港町である。寛文年間（1661－73）に鯨組の本拠地が置かれた際に埋め立てられた組網工場等の敷地がやがて鯨組の廃止を経て町家化していった歴史がある。 町家は切妻造平入、桟瓦葺で、屈曲した街路に合わせた台形の平面を持つものが多い。 近世から近代にかけての離島の港町の歴史的風致をよく保っている。",https://bunka.nii.ac.jp/heritage/43967/_113310/43967_113310989533619220734_300.jpg,文化庁（文部科学省）,Nagasaki-4.jpg
福井県,小浜市小浜西組,商家町,福井県小浜市,35.49187278000000,135.73613322000000,"小浜は福井県の南西部、日本海に面した港町である。古くは日本海側から京への物資の中継地であり、若狭国の政治の中心地でもあった。慶長６年（1601）に京極高次の小浜城築城後町人地が拡大し、貞享元年（1684）に東、中、西の３組に区分された。 保存地区はそのうち西組のほぼ全域で、商家町と茶屋町、寺町からなる。商家と茶屋では建築様式が多少異なっており、茶屋は二階前面に縁や出窓を出す特徴がある。近世城下町の町割を継承し歴史的風致を今日によく伝えている。",https://bunka.nii.ac.jp/heritage/43967/_113309/43967_113309439443829886250_300.jpg,文化庁（文部科学省）,Fukui-1.jpg
福井県,南越前町今庄宿,宿場町,福井県南条郡南越前町,35.83503723000000,136.19441605000000,"南越前町今庄宿は福井県山間部の豪雪地に位置し、17世紀初めに北陸道の宿場町として成立し、明治以降も地域の中心として、また鉄道の町として発展した。街道沿いには江戸後期から昭和30年代にかけて建てられた、重厚感のある町家が建ち並ぶ。冬期に設置される雪囲いも特徴的で、越前地方の豪雪地に発展した旧北陸道の宿場町の姿を良く伝える伝統的建造物群保存地区。",https://bunka.nii.ac.jp/heritage/43967/_506263/43967_506263939421876210903_300.jpg,文化庁（文部科学省）,Fukui-2.jpg
福井県,若狭町熊川宿,宿場町,福井県三方上中郡若狭町,35.44393633000000,135.90138305000000,"平成８年に選定を受けて以来、民家の修理・修景は年々着実に進んできました。また街道や川の景観整備は１７年度で全域完了しています。年々観光客が増え、新たなまちづくりの局面を迎えつつあります。",https://bunka.nii.ac.jp/heritage/43967/_113269/43967_113269248540077125032_300.jpg,若狭町教育委員会,Fukui-3.jpg
山梨県,甲州市塩山下小田原上条,山村集落,山梨県甲州市,35.73811972000000,138.77074927000000,"甲州市塩山下小田原上条は、江戸時代には畑作を中心に営み，明治時代中期以降，政府の振興策や技術の進展に呼応して養蚕に転じた。屋根裏で養蚕を行うために主屋の屋根前面の中央部を切り上げた突上げ屋根が設けられるようになり，昭和以降には棟に越屋根を上げた切妻造桟瓦葺の主屋も建てられ，地域独特の特徴的な集落の景観が形づくられた。江戸時代中期から昭和にかけて建てられた地域独特の形式をもつ民家が周囲の環境と一体となって、伝統的な集落の形態を良くとどめる伝統的建造物群保存地区。",https://bunka.nii.ac.jp/heritage/43967/_201444/43967_201444446710089334986_300.jpg,文化庁（文部科学省）,Yamanashi-1.jpg
山梨県,早川町赤沢,山村集落,山梨県南巨摩郡早川町,35.39717139000000,138.37721325000000,"早川町赤沢は、日蓮宗の総本山、身延山久遠寺とその信仰の霊山、七面山の中程に位置し、諸国から参詣する講の「宿」として栄えました。今なお、往時を忍ばせるかつての旅籠が建ち並んでいます。",https://bunka.nii.ac.jp/heritage/43967/_113235/43967_113235832282663720093_300.jpg,早川町教育委員会,Yamanashi-2.jpg
大分県,杵築市北台南台,武家町,大分県杵築市,33.41607857000000,131.61435127000000,"杵築市は、国東半島南頸部に位置する旧城下町で、城跡から西に延びる岬と背後の台地上にあって海蝕崖による高低差に富んだ地形を持ち、台地は東西に走る谷によって南北に分断され、北部は北台、南部は南台と呼ばれる。江戸時代にはこの台地上を武家地として区画し、近代以降もその地割を残して住宅街となっている。慶長期の縄張りを基盤に、正保２年（１６４５）能見松平家が入った際、現在の地割りが完成し、北台、南台とも江戸後期・末期に大火があったが、地割りを残してその都度住宅が再建されたため、地区内には江戸末期の武家住宅が多く現存する。杵築城下の南北台地上に区画された旧武家地で、石垣と土塀などで区切る藩政期以来の地割を良く踏襲して、近世武家住宅を中心とした江戸末期から昭和中期までの伝統的建造物を密度高く残す伝統的建造物群保存地区。",https://bunka.nii.ac.jp/heritage/43967/_211128/43967_211128609533398743488_300.jpg,文化庁（文部科学省）,Oita-1.jpg
大分県,日田市豆田町,商家町,大分県日田市,33.32727147000000,130.93687215000000,"大分県西部に位置する日田市豆田町は、近世初期に建設された城下町から商家町へと変遷した。寛永16年（1639）に幕府の直轄地となってからは、九州における政治・経済の中心地として発展した。南北２本の通りと東西５本の通りによる整然とした町割を残し、各時代で特色ある多様な建築様式は、変化に富んだ町並みを形成している。",https://bunka.nii.ac.jp/heritage/43967/_113293/43967_113293646856093481529_300.jpg,文化庁（文部科学省）,Oita-2.jpg
長野県,塩尻市木曾平沢,漆工町,長野県塩尻市,35.98118596000000,137.83165790000000,"木曽漆器の産地です。近世後期の地割をよく残すとともに、近世以来の伝統的な町家や塗蔵などが一体となり漆器生産の町としての特色ある歴史的風致をよく伝えています。漆器職人の集住と伝統的な手法とにより、現在も木曽漆器が生産され続けています。",https://bunka.nii.ac.jp/heritage/43967/_113302/43967_113302932305884451569_300.jpg,文化庁（文部科学省）,Nagano-1.jpg
長野県,塩尻市奈良井,宿場町,長野県塩尻市,35.96528140000000,137.81140131000000,"中山道の宿場町で、木曽11宿中最大の宿です。この地方に特徴的な出梁造の外観を保つ江戸末期から明治期の建物が良く残っています。漆工や曲物細工は伝統的な地場産業として著名です。",https://bunka.nii.ac.jp/heritage/43967/_113238/43967_113238163526895177845_300.jpg,塩尻市教育委員会,Nagano-2.jpg
長野県,千曲市稲荷山,商家町,長野県千曲市,36.53629371000000,138.10453719000000,"稲荷山は天正（てんしょう）年間に城と町場が形成され，廃城後の慶長（けいちょう）年間に宿場町となった。１９世紀初期以降は商業地化し，近世末期から近代にかけて，生糸や繊維製品の集散地として，当地方有数の商業地として繁栄した。近世以来の水路や地割（ちわり）を良く残し，街道に面して，中二階（ちゅうにかい）で二階を塗り込めた主屋や，高い二階で分厚い壁を軒まで塗り上げた重厚な主屋が並び，裏通りには土蔵が並ぶ。江戸時代に整備された町割りの上に，伝統的建造物を良く残し，近世から近代にかけて栄えた商家町の歴史的風致を良く伝える。",https://bunka.nii.ac.jp/heritage/43967/_199221/43967_199221272583918178379_300.jpg,文化庁（文部科学省）,Nagano-3.jpg
長野県,東御市海野宿,宿場町,長野県東御市,36.36202170000000,138.31327991000000,"海野宿は寛永二年に北国街道の宿駅として開設されました。明治時代には宿場時代の広い部屋を利用して養蚕・蚕種業で栄えました。宿場時代の建物・家並と明治時代以降の養蚕業で栄えた時代の建物が調和良く残されています。",https://bunka.nii.ac.jp/heritage/43967/_113236/43967_113236261592683563994_300.jpg,東御市教育委員会,Nagano-4.jpg
長野県,長野市戸隠,宿坊群,長野県長野市,36.73647832000000,138.08111586000000,"戸隠連峰を信仰対象とする戸隠神社は、奥社・中社・宝光社の三社からなる。保存地区は戸隠信仰と結びついて、中社及び宝光社の参詣道沿いに発達した宿坊群とその周囲の在家の住宅群、中社と宝光社の境内と両社を繋ぐ道からなる。神仏分離令以前の戸隠神社は、戸隠山顕光寺を前身とし、近世には戸隠講が形成され、多くの参詣者が訪れた。江戸時代以来の地割が良く保たれ、戸隠信仰のもと、増加する参詣者を受け入れるため大規模化した宿坊が、社殿や在家の住宅、石垣などと一体となって歴史的風致をよく伝える伝統的建造物群保存地区。",https://bunka.nii.ac.jp/heritage/43967/_209778/43967_209778923333021943114_300.jpg,文化庁（文部科学省）,Nagano-5.jpg
長野県,南木曽町妻籠宿,宿場町,長野県木曽郡南木曽町,35.56202909000000,137.59318986000000,"中山道の木曽十一宿のひとつで、保存地区は宿場地区、在郷地区及びこれらの周辺の三里を含む広範囲にわたっています。宿場地区は江戸末期から明治期の面影をよく残しています。",https://bunka.nii.ac.jp/heritage/43967/_113237/43967_113237611959135040329_300.jpg,文化庁（文部科学省）,Nagano-6.jpg
長野県,白馬村青鬼,山村集落,長野県北安曇郡白馬村,36.72416966000000,137.90172079000000,"青鬼は小規模な山村集落で、江戸後期から明治の茅葺の主屋や土蔵が建ち、石垣によって築かれた約二百枚の棚田及び江戸末期の用水路が残っています。保存地区は、北アルプスを望む極めて雄大な景観を保ち、伝統的建造物群が周囲の豊かな環境と一体になって歴史的景観を良く伝えています。",https://bunka.nii.ac.jp/heritage/43967/_113284/43967_113284189373169793384_300.jpg,白馬村教育委員会,Nagano-7.jpg
宮崎県,椎葉村十根川,山村集落,宮崎県東臼杵郡椎葉村,32.51290340000000,131.19338485000000,"宮崎県西北、九州山地の中央部にあり、谷間の南下がりの段丘地に形成された集落。石垣で造成した屋敷地に、椎葉型と呼ばれる一列平面の主屋と馬屋を構える。重なり合う石垣と萱、周囲の緑豊かな山林が独特の歴史的景観を見せている。",https://bunka.nii.ac.jp/heritage/43967/_113281/43967_113281041158367582634_300.jpg,椎葉村教育委員会,Miyazaki-1.jpg
宮崎県,日南市飫肥,武家町,宮崎県日南市,31.62696148000000,131.35276917000000,"飫肥は、伊東家５万１千石の城下町。こけむした石垣、大手門、長屋門、その他の門・長屋塀をはじめ種々の植栽や木立ちに覆われ、武家屋敷の名残をしのばせている。街区は、江戸時代初期に完成して以来、小規模な城下町として侍町と町人町が城址を中心にまとまっている。",https://bunka.nii.ac.jp/heritage/43967/_113264/43967_113264780672201344583_300.jpg,日南市教育委員会,Miyazaki-2.jpg
宮崎県,日向市美々津,港町,宮崎県日向市,32.33684912000000,131.61239546000000,"幕末から明治・大正期にかけて廻船業を中心に賑わった港町。地区内には３本の主道路と「ツキヌケ」と呼ばれる防火路が設けられ、それぞれの通りに切妻・妻入り、平入りの建物が混在している。",https://bunka.nii.ac.jp/heritage/43967/_113265/43967_113265529953303287758_300.jpg,日向市教育委員会,Miyazaki-3.jpg
岐阜県,恵那市岩村町本通り,商家町,岐阜県恵那市,35.36468961000000,137.44072222000000,"恵那市岩村町は江戸時代に東濃地方の政治、文化、経済の中心地として栄えた城下町です。保存地区は城下町の町家地区と近代の発展過程を伝える町並みが周辺環境と一体となって、東濃地方の商家町として特色ある歴史的景観を良好に伝えています。",https://bunka.nii.ac.jp/heritage/43967/_113273/43967_113273233744013057261_300.jpg,恵那市教育委員会,Gifu-1.jpg
岐阜県,郡上市郡上八幡北町,城下町,岐阜県郡上市,35.75250549000000,136.95879710000000,"郡上市郡上八幡北町伝統的建造物群保存地区は、四方を山と川に囲まれた自然地形をいかした城下町の一部で、統一された様式を持つ町家が密度高く建ち並ぶとともに、湧水をいかした水利施設とが一体となって、城下町としての歴史的風致を今日に良く伝え、我が国にとって価値が高い。",https://bunka.nii.ac.jp/heritage/43967/_173821/43967_173821215878050925655_300.jpg,文化庁（文部科学省）,Gifu-2.jpg
岐阜県,白川村荻町,山村集落,岐阜県大野郡白川村,36.25813172000000,136.90609662000000,"飛騨山間部の農村集落です。庄川沿いのわずかに開けた平地に切妻合掌造の家屋が建ち並び、水田や畑など周辺の自然環境とともに歴史的風致をよく残した農山村景観が広がっています。",https://bunka.nii.ac.jp/heritage/43967/_113240/43967_113240536374080341886_300.jpg,岐阜県教育委員会,Gifu-3.jpg
岐阜県,高山市三町,商家町,岐阜県高山市,36.14153913000000,137.25956878000000,"豊臣秀吉の命を受けた金森長近が飛騨を平定し、建設した城下町の商人町が、現在国の重要伝統的建造物群保存地区となっています。狭い通りを挟んで洗練された意匠の町家が並び、ベンガラ塗の出格子や胡粉塗の腕木等は町人町として栄えた面影をよく残しています。",https://bunka.nii.ac.jp/heritage/43967/_113239/43967_113239314893533035517_300.jpg,文化庁（文部科学省）,Gifu-4.jpg
岐阜県,高山市下二之町大新町,商家町,岐阜県高山市,36.14700989000000,137.25831516000000,"旧城下町時代の地割をよく残し、三町伝建地区と並んで、伝統的建造物が密度高く立ち並んでいます。地区内は主に江戸時代から明治時代にかけて商人町として栄えた面影を残す下二之町地区と、越中街道の名残を残す大新町地区からなり、地区ほぼ中央には国指定重要文化財日下部家、吉島家住宅が並び建っています。",https://bunka.nii.ac.jp/heritage/43967/_113290/43967_113290098889853509786_300.jpg,文化庁（文部科学省）,Gifu-5.jpg
岐阜県,美濃市美濃町,商家町,岐阜県美濃市,35.54595520000000,136.91247395000000,"美濃は、金森長近の城下町建設にはじまり、江戸時代を通して商業都市として繁栄しました。主屋妻面の卯建、多彩な格子やむしこ窓、正面下屋庇上に設けられた辻堂風もしくは箱型の火防神などの意匠や造形に特徴があります。江戸時代初期以来の独特の目の字型の街路構成を保ち、歴史的景観を良く伝えています。",https://bunka.nii.ac.jp/heritage/43967/_113272/43967_113272746200073431052_300.jpg,美濃市教育委員会,Gifu-6.jpg
鹿児島県,出水市出水麓,武家町,鹿児島県出水市,32.07672468000000,130.36045986000000,"出水麓は薩摩藩が設けた外城のうち、最も古く、最大規模を有する旧武家屋敷地である。丘を整地し道路を掘り下げて築いた武士の住宅地であった。武家門、玉石垣、樹木などが良好な街路景観を織りなし、敷地内の歴史的建物とともに優れた歴史的風致を形成している。",https://bunka.nii.ac.jp/heritage/43967/_113266/43967_113266851323353092103_300.jpg,出水市教育委員会,Kagoshima-1.jpg
鹿児島県,薩摩川内市入来麓,武家町,鹿児島県薩摩川内市,31.80799932000000,130.42946642000000,"鹿児島の１１３外城の一つで，中世山城である清色城と樋脇川との間に広がる武家屋敷地である。自然の地形を活かした中世の町を一部残しつつ，近世に形成された街路を残す。屋敷割は，街路に面して玉石垣と石垣上の植えられた生垣によって区画されており，周囲の山々と一体を成した美しい緑地景観を生み出している。",https://bunka.nii.ac.jp/heritage/43967/_113289/43967_113289524182007209384_300.jpg,薩摩川内市教育委員会,Kagoshima-2.jpg
鹿児島県,南九州市知覧,武家町,鹿児島県南九州市,31.37807314000000,130.44641659000000,"薩摩藩政時代に１１３外城の一つとして，知覧島津氏（佐多氏）の私領地であった知覧麓は江戸時代中期に整備されたと伝えられる。 領主の御仮屋を中心とした道路割りが旧態をよく保持するとともに，通りに面した石垣の上に生垣が連なり庭園都市的な造りとなっている。",https://bunka.nii.ac.jp/heritage/43967/_113267/43967_113267351294516780330_300.jpg,鹿児島県教育委員会,Kagoshima-3.jpg
鹿児島県,南さつま市加世田麓,武家町,鹿児島県南さつま市,31.41663170000000,130.32332802000000,"南さつま市は、薩摩半島の南西端に位置する。加世田麓は中世の山城周辺に形成された武家地を起源とし、１５世紀中期以降に当地を領有した島津家の外城として地割が整備された。自然地形に沿った曲線的な街路や地割は江戸時代以来の姿をよく留め、武家住宅やその形式を引き継ぐ主屋をはじめ、用水や生垣など、地形を巧みに生かして形成された麓の独特な歴史的風致をよく伝える伝統的建造物群保存地区。",https://bunka.nii.ac.jp/heritage/43967/_365690/43967_365690813200353747798_300.jpg,文化庁（文部科学省）,Kagoshima-4.jpg
静岡県,焼津市花沢,山村集落,静岡県焼津市,34.90641601000000,138.33050561000000,"焼津市は静岡市の南側に位置し、高草山等の山々を境に静岡市と接する。東は駿河湾を望み、市域南部は大井川の扇状地である志太(しだ)平野が広がる温暖な気候に恵まれる。花沢集落は山間部の谷地に位置する。地区の中央を花沢川が南北に流れ、川沿いに日本坂峠へと続く旧街道が通る。蜜柑、茶、煙草等を生業とした山村集落である。集落は、川沿いの通り西側に屋敷地を開く。通りに面して石垣を築き、主屋を敷地奥に建て、オード等と呼ばれる作業空間を取り囲むように農作業小屋、季節労働者等の宿泊部屋等の附属屋が取り囲む。狭い敷地を巧みに生かした山村集落を良く残し、我が国にとって価値が高い。",https://bunka.nii.ac.jp/heritage/43967/_196348/43967_196348066596197814812_300.jpg,文化庁（文部科学省）,Shizuoka-1.jpg
沖縄県,竹富町竹富島,島の農村集落,沖縄県八重山郡竹富町,24.32791885000000,124.08581683000000,"屋敷内の伝統的な構成と配置に珊瑚礁のグック（石垣）に取り囲まれた伝統的な屋敷の中心に居室・寝室としてのフーヤ（主屋）が建ち、その西隣に炊事棟（トーラ）が位置している。家屋の外観は、木造（貫屋造）・平屋の構造と、琉球赤瓦葺き漆喰塗りまたは茅葺の寄棟屋根、木板張り・木板雨戸の外壁、軒の深さと低さなどが特徴。",https://bunka.nii.ac.jp/heritage/43967/_113268/43967_113268933872112459856_300.jpg,沖縄県教育委員会,Okinawa-1.jpg
沖縄県,渡名喜村渡名喜島,島の農村集落,沖縄県島尻郡渡名喜村,26.37195030000000,127.14367865000000,"那覇の西北の海上にあり、周囲は珊瑚礁が発達し、美しい自然を有す。保存地区は渡名喜島の中央の平地に集落を構え、白砂の街路に沿って彫り込みの屋敷地は広がり、周囲の石垣や福木林に囲まれた赤瓦屋根の主屋などが良く残り、地域的特徴を顕著に示す。",https://bunka.nii.ac.jp/heritage/43967/_113282/43967_113282835640843196254_300.jpg,文化庁（文部科学省）,Okinawa-2.jpg
愛知県,豊田市足助,商家町,愛知県豊田市,35.13690601000000,137.31761831000000,"豊田市足助伝統的建造物群保存地区は、江戸時代以来の重厚な町家を多く残し、平入と妻入の入り交じる街道沿いと、離れ座敷の建ち並ぶ川沿いに変化に富んだ景観を残す。物資の流通によって近世から近代にかけて栄え、山間部に成立した商家町の姿を良く伝え、我が国にとって価値が高い。",https://bunka.nii.ac.jp/heritage/43967/_149272/43967_149272740585404343109_300.jpg,文化庁（文部科学省）,Aichi-1.jpg
愛知県,名古屋市有松,染織町,愛知県名古屋市,35.06687402000000,136.97011682000000,"有松は名古屋市東部の尾張丘陵を横断する東海道沿いに位置し、鳴海宿と池鯉鮒宿の間にある。慶長13年の尾張藩による移住奨励によって開かれた集落で、まもなく考案された有松絞りによって町並みは江戸時代を通じて発展し、近代に繁栄を極めた。絞商の広大な屋敷構えが、町並みの特徴を成す。町の成立から現在まで、一つの産業を持続してきた稀な町並みであり、絞り織物の生産・販売を行ってきた町の歴史的風致を良く伝える伝統的建造物群保存地区。",https://bunka.nii.ac.jp/heritage/43967/_209776/43967_209776224186727594579_300.jpg,文化庁（文部科学省）,Aichi-2.jpg
三重県,亀山市関宿,宿場町,三重県亀山市,34.85369501000000,136.39117007000000,"東海道宿場町です。東西の追分け間の延長約1.8キロメートルにわたり，旧本陣をはじめとする平入２階建の町家群が軒を連ねています。宿中央部には関の地蔵で著名な地蔵院が建っています。",https://bunka.nii.ac.jp/heritage/43967/_113241/43967_113241895902002704973_300.jpg,文化庁（文部科学省）,Mie-1.jpg
滋賀県,近江八幡市八幡,商家町,滋賀県近江八幡市,35.13876916000000,136.09076581000000,"近江八幡市八幡は琵琶湖の東岸中央に位置し北国街道と中山道が交差する交通の要衝に発達した町で、近江商人の根拠地として反映した時代の瀟洒な主屋、土蔵群が多数現存しています。特に、大型町家と前庭の見越しの松が連続して並ぶ景観は圧巻です。",https://bunka.nii.ac.jp/heritage/43967/_113242/43967_113242040649263467473_300.jpg,近江八幡市教育委員会,Shiga-1.jpg
滋賀県,大津市坂本,里坊群,滋賀県大津市,35.07053786000000,135.86792926000000,"比叡山延暦寺・日吉大社の門前町として栄えるとともに、山上で修行していた僧侶の隠居所である里坊が集中したところです。里坊は道路に面して門を構え、穴太衆積みの石垣と塀もしくは生垣をめぐらし、奥に堂や本堂等の建物を置き、清涼な小河川や水路とともに優れた歴史的風致を伝えています。",https://bunka.nii.ac.jp/heritage/43967/_113274/43967_113274498122641796432_300.jpg,大津市教育委員会,Shiga-2.jpg
滋賀県,東近江市五個荘金堂,農村集落,滋賀県東近江市,35.15440363000000,136.18016613000000,"古代条里制の地割の上に、近世初頭に集落が形成され、その中心部には江戸時代後期から明治・大正・昭和戦前期にかけての近江商人の本宅が残っており、周辺には伝統的な農家が建ち並んでいます。集落内外に分布する社寺や水田とともに、優れた歴史的風致を伝えています。",https://bunka.nii.ac.jp/heritage/43967/_113275/43967_113275185338677184742_300.jpg,東近江市教育委員会,Shiga-3.jpg
滋賀県,彦根市河原町芹町地区,商家町,滋賀県彦根市,35.26350680000000,136.25733036000000,"彦根は江戸時代初期に形成された城下町で、保存地区は城下町の南東部に位置する町人地にあたり、江戸時代から昭和戦前期にかけて商業地として繁栄した地区で、屈曲した街路や短冊形に割られた敷地等、河川を制御して形成された城下町の地割を良く伝える。街路に沿って、特徴ある間取りをもち、軒の低いつし二階の町家が良く残る。 江戸時代に形成された地割りを良く残すとともに、江戸時代から明治期に建築された伝統的建造物が良く残り、城下町に形成された商家町の歴史的風致を良く伝える伝統的建造物群保存地区。",https://bunka.nii.ac.jp/heritage/43967/_209777/43967_209777445897556850734_300.jpg,文化庁（文部科学省）,Shiga-4.jpg